project,jurisdiction,expected_units,notes,address,lat,lon
St Paul Village,Chapel Hill,350,,1604 Purefoy Drive,35.959235,-79.083998
Link Apartments at 101 E Rosemary,Chapel Hill,150,,101 E Rosemary St,35.914128,-79.056292
Longleaf Trace,Chapel Hill,42-60,,1708 Legion Road,35.938107,-79.018634
South Creek (Phase 3),Chapel Hill,56-76 Single-Family; 249-386 Multi-Family,,4511 S Columbia Street,35.907558,-79.052807
Gateway/Meridian (Phase 2),Chapel Hill,72,,19 East Lakeview Drive,35.946362,-79.003376
Barbee Chapel Apartments,Chapel Hill,262-350,,5101 Barbee Chapel Road,35.900387,-79.007812
